{"type":"FeatureCollection","features":[{"type":"Feature","geometry":{"type":"Point","coordinates":[-75.723473,45.425954]},"properties":{"site_id":"1","region":"National Office","address":"10?Wellington","city":"Gatineau","prov":"Quebec","phone":"819-997-2800","email":"enviroinfo@ec.gc.ca"}},{"type":"Feature","geometry":{"type":"Point","coordinates":[-63.569778,44.665338]},"properties":{"site_id":"2","region":"Atlantic","address":"45 Alderney Drive","city":"Dartmouth","prov":"Nova Scotia","phone":"902-426-7231","email":"15th.reception@ec.gc.ca"}},{"type":"Feature","geometry":{"type":"Point","coordinates":[-71.213379,46.844053]},"properties":{"site_id":"3","region":"Quebec","address":"1550, avenue d'Estimauville","city":"Qu?bec","prov":"Qu?bec","phone":"1-800-668-6767","email":"enviroinfo@ec.gc.ca"}},{"type":"Feature","geometry":{"type":"Point","coordinates":[-79.468498,43.781258]},"properties":{"site_id":"4","region":"Ontario","address":"4905 Dufferin Street","city":"Toronto","prov":"Ontario","phone":"416-739-4826","email":"enviroinfo@ec.gc.ca"}},{"type":"Feature","geometry":{"type":"Point","coordinates":[-113.414852,53.529723]},"properties":{"site_id":"5","region":"Praries, Northwest Territories and Nunavut","address":"9250 49 St NW","city":"Edmonton","prov":"Alberta","phone":"780-951-8600","email":"enviroinfo@ec.gc.ca"}},{"type":"Feature","geometry":{"type":"Point","coordinates":[-123.11787,49.287081]},"properties":{"site_id":"6","region":"British Columbia","address":"401 Burrard Street","city":"Vancouver","prov":"British Columbia","phone":"604-664-9100","email":"enviroinfo@ec.gc.ca"}},{"type":"Feature","geometry":{"type":"Point","coordinates":[-135.0998632,60.7764012]},"properties":{"site_id":"7","region":"Yukon","address":"91782 Alaska Highway","city":"Whitehorse","prov":"Yukon","phone":"867-393-6700enviroinfo@ec.gc.ca","email":""}}]}